{"type":"FeatureCollection","features":[{"type":"Feature","properties":{},"geometry":{"coordinates":[[[-74.07891678204119,4.665042556434173],[-74.07891678204119,4.6186147860667575],[-74.06181759173666,4.6186147860667575],[-74.06181759173666,4.665042556434173],[-74.07891678204119,4.665042556434173]]],"type":"Polygon"},"id":0},{"type":"Feature","properties":{"TIPO":"VETERINARIA","NOMBRE":"VETERINARIA LA 29","LATITUD":4.619221845486351,"LONGITUD":-74.07449976009907},"geometry":{"coordinates":[-74.07449976009907,4.619221845486351],"type":"Point"},"id":1},{"type":"Feature","properties":{"TIPO":"VETERINARIA","NOMBRE":"CENTRO MEDICO VETERINARIO","LATITUD":4.620405103371141,"LONGITUD":-74.07451029728982},"geometry":{"coordinates":[-74.07451029728982,4.620405103371141],"type":"Point"},"id":2},{"type":"Feature","properties":{"TIPO":"VETERINARIA","NOMBRE":"LA VETE DE ELIOT Y SUS AMIGOS","LATITUD":4.62594507508831,"LONGITUD":-74.0759905427589},"geometry":{"coordinates":[-74.0759905427589,4.62594507508831],"type":"Point"},"id":3},{"type":"Feature","properties":{"TIPO":"VETERINARIA","NOMBRE":"CLINIKAN VETERINARIA ACUPUNTURA","LATITUD":4.627074439512555,"LONGITUD":-74.07296173784101},"geometry":{"coordinates":[-74.07296173784101,4.627074439512555],"type":"Point"},"id":4},{"type":"Feature","properties":{"TIPO":"VETERINARIA","NOMBRE":"VETERINARIA CHATOS","LATITUD":4.632429367432991,"LONGITUD":-74.07586384318704},"geometry":{"coordinates":[-74.07586384318704,4.632429367432991],"type":"Point"},"id":5},{"type":"Feature","properties":{"TIPO":"VETERINARIA","NOMBRE":"CENTRO QUIRURGICO VETERINARIO","LATITUD":4.631809083552341,"LONGITUD":-74.06897458695468},"geometry":{"coordinates":[-74.06897458695468,4.631809083552341],"type":"Point"},"id":6},{"type":"Feature","properties":{"TIPO":"VETERINARIA","NOMBRE":"CENTRO CLINICO FELINO","LATITUD":4.63554624911373,"LONGITUD":-74.07491853653552},"geometry":{"coordinates":[-74.07491853653552,4.63554624911373],"type":"Point"},"id":7},{"type":"Feature","properties":{"TIPO":"VETERINARIA","NOMBRE":"CLINICA VETERNARIA PATOTAS SAS","LATITUD":4.639512323858085,"LONGITUD":-74.06970997861374},"geometry":{"coordinates":[-74.06970997861374,4.639512323858085],"type":"Point"},"id":8},{"type":"Feature","properties":{"TIPO":"VETERINARIA","NOMBRE":"VETERINARIA PATAS Y BIGOTES","LATITUD":4.64277690680791,"LONGITUD":-74.07088956498431},"geometry":{"coordinates":[-74.07088956498431,4.64277690680791],"type":"Point"},"id":9},{"type":"Feature","properties":{"TIPO":"VETERINARIA","NOMBRE":"CLINICA VETERINARIA DE ALVARO CHAPARRO","LATITUD":4.649024382681816,"LONGITUD":-74.07100869432226},"geometry":{"coordinates":[-74.07100869432226,4.649024382681816],"type":"Point"},"id":10}]}